grid({"keys": ["", "GL", "CA", "RS", "US", "SV", "IC", "FO", "UK", "EI", "JE", "SB", "FR", "SP", "PO", "MO", "BD", "MX", "AG", "BF", "WI", "MR", "CU", "TK", "ML", "DR", "HO", "JM", "HA", "RQ", "VQ", "TB", "AC", "CV", "SG", "NU", "GP", "UV", "ES", "CO", "VE", "NT", "VC", "PM", "PU", "SL", "NS", "FG", "LI", "IV", "KR", "GH", "EC", "PE", "GY", "BR"], "data": {"BD": {"SUBREGION": 21, "NAME": "Bermuda", "AREA": 5, "REGION": 19, "LON": -64.709000000000003, "ISO3": "BMU", "ISO2": "BM", "FIPS": "BD", "UN": 60, "LAT": 32.335999999999999, "POP2005": 64174}, "FR": {"SUBREGION": 155, "NAME": "France", "AREA": 55010, "REGION": 150, "LON": 2.5499999999999998, "ISO3": "FRA", "ISO2": "FR", "FIPS": "FR", "UN": 250, "LAT": 46.564999999999998, "POP2005": 60990544}, "SP": {"SUBREGION": 39, "NAME": "Spain", "AREA": 49904, "REGION": 150, "LON": -3.649, "ISO3": "ESP", "ISO2": "ES", "FIPS": "SP", "UN": 724, "LAT": 40.226999999999997, "POP2005": 43397491}, "TB": {"SUBREGION": 29, "NAME": "Saint Barthelemy", "AREA": 0, "REGION": 19, "LON": -63.042999999999999, "ISO3": "BLM", "ISO2": "BL", "FIPS": "TB", "UN": 652, "LAT": 18.039999999999999, "POP2005": 0}, "UV": {"SUBREGION": 11, "NAME": "Burkina Faso", "AREA": 27360, "REGION": 2, "LON": -1.74, "ISO3": "BFA", "ISO2": "BF", "FIPS": "UV", "UN": 854, "LAT": 12.278, "POP2005": 13933363}, "BF": {"SUBREGION": 29, "NAME": "Bahamas", "AREA": 1001, "REGION": 19, "LON": -78.013999999999996, "ISO3": "BHS", "ISO2": "BS", "FIPS": "BF", "UN": 44, "LAT": 24.628, "POP2005": 323295}, "WI": {"SUBREGION": 15, "NAME": "Western Sahara", "AREA": 0, "REGION": 2, "LON": -13.706, "ISO3": "ESH", "ISO2": "EH", "FIPS": "WI", "UN": 732, "LAT": 24.553999999999998, "POP2005": 440428}, "JM": {"SUBREGION": 29, "NAME": "Jamaica", "AREA": 1083, "REGION": 19, "LON": -77.319999999999993, "ISO3": "JAM", "ISO2": "JM", "FIPS": "JM", "UN": 388, "LAT": 18.151, "POP2005": 2682469}, "JE": {"SUBREGION": 154, "NAME": "Jersey", "AREA": 0, "REGION": 150, "LON": -2.129, "ISO3": "JEY", "ISO2": "JE", "FIPS": "JE", "UN": 832, "LAT": 49.219000000000001, "POP2005": 0}, "HO": {"SUBREGION": 13, "NAME": "Honduras", "AREA": 11189, "REGION": 19, "LON": -86.863, "ISO3": "HND", "ISO2": "HN", "FIPS": "HO", "UN": 340, "LAT": 14.819000000000001, "POP2005": 683411}, "BR": {"SUBREGION": 5, "NAME": "Brazil", "AREA": 845942, "REGION": 19, "LON": -53.088999999999999, "ISO3": "BRA", "ISO2": "BR", "FIPS": "BR", "UN": 76, "LAT": -10.772, "POP2005": 186830759}, "FG": {"SUBREGION": 5, "NAME": "French Guiana", "AREA": 8815, "REGION": 19, "LON": -53.241, "ISO3": "GUF", "ISO2": "GF", "FIPS": "FG", "UN": 254, "LAT": 3.9239999999999999, "POP2005": 192099}, "EI": {"SUBREGION": 154, "NAME": "Ireland", "AREA": 6889, "REGION": 150, "LON": -8.1519999999999992, "ISO3": "IRL", "ISO2": "IE", "FIPS": "EI", "UN": 372, "LAT": 53.177, "POP2005": 4143294}, "HA": {"SUBREGION": 29, "NAME": "Haiti", "AREA": 2756, "REGION": 19, "LON": -72.278000000000006, "ISO3": "HTI", "ISO2": "HT", "FIPS": "HA", "UN": 332, "LAT": 19.141999999999999, "POP2005": 9296291}, "DR": {"SUBREGION": 29, "NAME": "Dominican Republic", "AREA": 4838, "REGION": 19, "LON": -70.728999999999999, "ISO3": "DOM", "ISO2": "DO", "FIPS": "DR", "UN": 214, "LAT": 19.015000000000001, "POP2005": 9469601}, "FO": {"SUBREGION": 154, "NAME": "Faroe Islands", "AREA": 0, "REGION": 150, "LON": -6.8639999999999999, "ISO3": "FRO", "ISO2": "FO", "FIPS": "FO", "UN": 234, "LAT": 62.049999999999997, "POP2005": 48205}, "RQ": {"SUBREGION": 29, "NAME": "Puerto Rico", "AREA": 887, "REGION": 19, "LON": -66.465999999999994, "ISO3": "PRI", "ISO2": "PR", "FIPS": "RQ", "UN": 630, "LAT": 18.221, "POP2005": 3946779}, "PU": {"SUBREGION": 11, "NAME": "Guinea-Bissau", "AREA": 2812, "REGION": 2, "LON": -14.651, "ISO3": "GNB", "ISO2": "GW", "FIPS": "PU", "UN": 624, "LAT": 12.125, "POP2005": 1596929}, "LI": {"SUBREGION": 11, "NAME": "Liberia", "AREA": 9632, "REGION": 2, "LON": -9.657, "ISO3": "LBR", "ISO2": "LR", "FIPS": "LI", "UN": 430, "LAT": 6.6820000000000004, "POP2005": 3441796}, "CU": {"SUBREGION": 29, "NAME": "Cuba", "AREA": 10982, "REGION": 19, "LON": -77.781000000000006, "ISO3": "CUB", "ISO2": "CU", "FIPS": "CU", "UN": 192, "LAT": 21.297000000000001, "POP2005": 11259905}, "PE": {"SUBREGION": 5, "NAME": "Peru", "AREA": 128000, "REGION": 19, "LON": -75.552000000000007, "ISO3": "PER", "ISO2": "PE", "FIPS": "PE", "UN": 604, "LAT": -9.3260000000000005, "POP2005": 27274266}, "NS": {"SUBREGION": 5, "NAME": "Suriname", "AREA": 15600, "REGION": 19, "LON": -55.911999999999999, "ISO3": "SUR", "ISO2": "SR", "FIPS": "NS", "UN": 740, "LAT": 4.1269999999999998, "POP2005": 452468}, "NT": {"SUBREGION": 29, "NAME": "Netherlands Antilles", "AREA": 80, "REGION": 19, "LON": -68.870000000000005, "ISO3": "ANT", "ISO2": "AN", "FIPS": "NT", "UN": 530, "LAT": 12.122999999999999, "POP2005": 186392}, "NU": {"SUBREGION": 13, "NAME": "Nicaragua", "AREA": 12140, "REGION": 19, "LON": -85.034000000000006, "ISO3": "NIC", "ISO2": "NI", "FIPS": "NU", "UN": 558, "LAT": 12.84, "POP2005": 5462539}, "PM": {"SUBREGION": 13, "NAME": "Panama", "AREA": 7443, "REGION": 19, "LON": -80.920000000000002, "ISO3": "PAN", "ISO2": "PA", "FIPS": "PM", "UN": 591, "LAT": 8.3840000000000003, "POP2005": 3231502}, "AC": {"SUBREGION": 29, "NAME": "Antigua and Barbuda", "AREA": 44, "REGION": 19, "LON": -61.783000000000001, "ISO3": "ATG", "ISO2": "AG", "FIPS": "AC", "UN": 28, "LAT": 17.077999999999999, "POP2005": 83039}, "VC": {"SUBREGION": 29, "NAME": "Saint Vincent and the Grenadines", "AREA": 39, "REGION": 19, "LON": -61.194000000000003, "ISO3": "VCT", "ISO2": "VC", "FIPS": "VC", "UN": 670, "LAT": 13.247999999999999, "POP2005": 119137}, "CO": {"SUBREGION": 5, "NAME": "Colombia", "AREA": 103870, "REGION": 19, "LON": -73.075999999999993, "ISO3": "COL", "ISO2": "CO", "FIPS": "CO", "UN": 170, "LAT": 3.8999999999999999, "POP2005": 4494579}, "VE": {"SUBREGION": 5, "NAME": "Venezuela", "AREA": 88205, "REGION": 19, "LON": -66.165999999999997, "ISO3": "VEN", "ISO2": "VE", "FIPS": "VE", "UN": 862, "LAT": 7.125, "POP2005": 26725573}, "AG": {"SUBREGION": 15, "NAME": "Algeria", "AREA": 238174, "REGION": 2, "LON": 2.6320000000000001, "ISO3": "DZA", "ISO2": "DZ", "FIPS": "AG", "UN": 12, "LAT": 28.163, "POP2005": 32854159}, "GP": {"SUBREGION": 29, "NAME": "Guadeloupe", "AREA": 169, "REGION": 19, "LON": -61.441000000000003, "ISO3": "GLP", "ISO2": "GP", "FIPS": "GP", "UN": 312, "LAT": 16.286000000000001, "POP2005": 438403}, "CA": {"SUBREGION": 21, "NAME": "Canada", "AREA": 909351, "REGION": 19, "LON": -109.43300000000001, "ISO3": "CAN", "ISO2": "CA", "FIPS": "CA", "UN": 124, "LAT": 59.081000000000003, "POP2005": 32270507}, "SL": {"SUBREGION": 11, "NAME": "Sierra Leone", "AREA": 7162, "REGION": 2, "LON": -11.792, "ISO3": "SLE", "ISO2": "SL", "FIPS": "SL", "UN": 694, "LAT": 8.5600000000000005, "POP2005": 5586403}, "TK": {"SUBREGION": 29, "NAME": "Turks and Caicos Islands", "AREA": 0, "REGION": 19, "LON": -71.950000000000003, "ISO3": "TCA", "ISO2": "TC", "FIPS": "TK", "UN": 796, "LAT": 21.902000000000001, "POP2005": 24459}, "GY": {"SUBREGION": 5, "NAME": "Guyana", "AREA": 19685, "REGION": 19, "LON": -58.973999999999997, "ISO3": "GUY", "ISO2": "GY", "FIPS": "GY", "UN": 328, "LAT": 4.7919999999999998, "POP2005": 739472}, "IV": {"SUBREGION": 11, "NAME": "Cote d'Ivoire", "AREA": 31800, "REGION": 2, "LON": -5.556, "ISO3": "CIV", "ISO2": "CI", "FIPS": "IV", "UN": 384, "LAT": 7.6319999999999997, "POP2005": 18584701}, "VQ": {"SUBREGION": 29, "NAME": "United States Virgin Islands", "AREA": 35, "REGION": 19, "LON": -64.784999999999997, "ISO3": "VIR", "ISO2": "VI", "FIPS": "VQ", "UN": 850, "LAT": 17.741, "POP2005": 111408}, "EC": {"SUBREGION": 5, "NAME": "Ecuador", "AREA": 27684, "REGION": 19, "LON": -78.497, "ISO3": "ECU", "ISO2": "EC", "FIPS": "EC", "UN": 218, "LAT": -1.385, "POP2005": 13060993}, "IC": {"SUBREGION": 154, "NAME": "Iceland", "AREA": 10025, "REGION": 150, "LON": -18.48, "ISO3": "ISL", "ISO2": "IS", "FIPS": "IC", "UN": 352, "LAT": 64.763999999999996, "POP2005": 295732}, "GL": {"SUBREGION": 21, "NAME": "Greenland", "AREA": 41045, "REGION": 19, "LON": -41.390999999999998, "ISO3": "GRL", "ISO2": "GL", "FIPS": "GL", "UN": 304, "LAT": 74.718999999999994, "POP2005": 57475}, "CV": {"SUBREGION": 11, "NAME": "Cape Verde", "AREA": 403, "REGION": 2, "LON": -23.634, "ISO3": "CPV", "ISO2": "CV", "FIPS": "CV", "UN": 132, "LAT": 15.071, "POP2005": 506807}, "ES": {"SUBREGION": 13, "NAME": "El Salvador", "AREA": 2072, "REGION": 19, "LON": -88.866, "ISO3": "SLV", "ISO2": "SV", "FIPS": "ES", "UN": 222, "LAT": 13.736000000000001, "POP2005": 6668356}, "GH": {"SUBREGION": 11, "NAME": "Ghana", "AREA": 22754, "REGION": 2, "LON": -1.2070000000000001, "ISO3": "GHA", "ISO2": "GH", "FIPS": "GH", "UN": 288, "LAT": 7.96, "POP2005": 2253501}, "ML": {"SUBREGION": 11, "NAME": "Mali", "AREA": 122019, "REGION": 2, "LON": -3.524, "ISO3": "MLI", "ISO2": "ML", "FIPS": "ML", "UN": 466, "LAT": 17.350000000000001, "POP2005": 1161109}, "MO": {"SUBREGION": 15, "NAME": "Morocco", "AREA": 44630, "REGION": 2, "LON": -5.758, "ISO3": "MAR", "ISO2": "MA", "FIPS": "MO", "UN": 504, "LAT": 32.706000000000003, "POP2005": 30494991}, "RS": {"SUBREGION": 151, "NAME": "Russia", "AREA": 1638094, "REGION": 150, "LON": 96.688999999999993, "ISO3": "RUS", "ISO2": "RU", "FIPS": "RS", "UN": 643, "LAT": 61.988, "POP2005": 143953092}, "SV": {"SUBREGION": 154, "NAME": "Svalbard", "AREA": 0, "REGION": 150, "LON": 18.373999999999999, "ISO3": "SJM", "ISO2": "SJ", "FIPS": "SV", "UN": 744, "LAT": 78.829999999999998, "POP2005": 0}, "US": {"SUBREGION": 21, "NAME": "United States", "AREA": 915896, "REGION": 19, "LON": -98.605999999999995, "ISO3": "USA", "ISO2": "US", "FIPS": "US", "UN": 840, "LAT": 39.622, "POP2005": 299846449}, "PO": {"SUBREGION": 39, "NAME": "Portugal", "AREA": 9150, "REGION": 150, "LON": -8.0579999999999998, "ISO3": "PRT", "ISO2": "PT", "FIPS": "PO", "UN": 620, "LAT": 40.308999999999997, "POP2005": 10528226}, "KR": {"SUBREGION": 57, "NAME": "Kiribati", "AREA": 73, "REGION": 9, "LON": 175.036, "ISO3": "KIR", "ISO2": "KI", "FIPS": "KR", "UN": 296, "LAT": -1.508, "POP2005": 92003}, "UK": {"SUBREGION": 154, "NAME": "United Kingdom", "AREA": 24193, "REGION": 150, "LON": -1.6000000000000001, "ISO3": "GBR", "ISO2": "GB", "FIPS": "UK", "UN": 826, "LAT": 53.0, "POP2005": 60244834}, "MR": {"SUBREGION": 11, "NAME": "Mauritania", "AREA": 102522, "REGION": 2, "LON": -10.332000000000001, "ISO3": "MRT", "ISO2": "MR", "FIPS": "MR", "UN": 478, "LAT": 20.260000000000002, "POP2005": 2963105}, "SB": {"SUBREGION": 21, "NAME": "Saint Pierre and Miquelon", "AREA": 0, "REGION": 19, "LON": -56.325000000000003, "ISO3": "SPM", "ISO2": "PM", "FIPS": "SB", "UN": 666, "LAT": 47.042000000000002, "POP2005": 6346}, "SG": {"SUBREGION": 11, "NAME": "Senegal", "AREA": 19253, "REGION": 2, "LON": -14.881, "ISO3": "SEN", "ISO2": "SN", "FIPS": "SG", "UN": 686, "LAT": 15.013, "POP2005": 1177034}, "MX": {"SUBREGION": 13, "NAME": "Mexico", "AREA": 190869, "REGION": 19, "LON": -102.535, "ISO3": "MEX", "ISO2": "MX", "FIPS": "MX", "UN": 484, "LAT": 23.951000000000001, "POP2005": 104266392}}, "grid": ["                                                                ", "                                                                ", "                                                                ", "                                                                ", "                                                                ", "                                                 !!!!!!         ", "                                    ####       !!!!!!!!!        ", "                                  ########    !!!!!!!!!!!       ", "                                 ########## !!!!!!!!!!!!!       ", "                                ##########!!!!!!!!!!!!!!!!!     ", "                               ###########!!!!!!!!!!!!!!!!!!    ", "                              ###########!!!!!!!!!!!!!!!!!!!    ", "                             ###########!!!!!!!!!!!!!!!!!!!     ", "                            ############!!!!!!!!!!!!!!!!!!!     ", "                            ########### !!!!!!!!!!!!!!!!!!      ", "                          ## #########  !!!!!!!!!!!!!!!!!!      ", "                        ##############!!!!!!!!!!!!!!!!!!!!      ", "                       ###############!!!!!!!!!!!!!!!!!!!!      ", "                      ### ############!!!!!!!!!!!!!!!!!!!!      ", "                     ####### ######## !!!!!!!!!!!!!!!!!!!!      ", "                    #################  !!!!!!!!!!!!!!!!!!!      ", "                    ################   !!!!!!!!!!!!!!!!!!!      ", "                      ##############       !!!!!!!!!!!!!!!      ", "                   ######   ########       !!!!!!!!!!!!!!!      ", "                   ##### ############      !!!!!!!!!!!!!!       ", "                   ###################     !!!!!!!!!!!!!!       ", "                   ######## ###########     !!!!!!!!!!!!!       ", " $     %%%%       ######################    !!!!!!!!!!!!!   &&  ", "      %%%%%%%%###########################   !!!!!!!!!!!!!       ", "    %%%%%%%%%%###########################   !!!!!!!!!!!!        ", "    %%%%%%%%%%############################  !!!!!!!!!!!         ", "     %%%%%%%%%############################# !!!!!!!!!  '  '     ", "   $%%%%%%%%%%##################### ####### !!!!!!!!   '''''    ", "  $ %%%%%%%%%%############################   !!!!!     '''''    ", "  %%%%%%%%%%%%####################### ####   !!!!!     ''''     ", "    %%%%%%%%%%##################  ########    !!!!           (  ", "  % %%%%%%%%%%%################     ######    !!!            ( )", "    %%%%%%%%%%%%%##############    #######     !!             ))", "   %  %%%%%    %%###############   ########                 ))))", "   %  %%%%     %%%################ ########                  )))", "    %%%%        %%##########################                *)))", "  %%%%          #############################               **))", "%%%              ############################               **))", "                  ##%%%%%%%%%%%##############                ))+", "                   %%%%%%%%%%%%%%%#####%###,##                --", "                   %%%%%%%%%%%%%%%%##%%%%##,,#                 -", "                   %%%%%%%%%%%%%%%%%%%%%%##                 ....", "                   %%%%%%%%%%%%%%%%%%%%%                    ....", "                   %%%%%%%%%%%%%%%%%%%%             / /     /...", "                    %%%%%%%%%%%%%%%%%%               ///    /...", "                    %%%%%%%%%%%%%%%%%%                       ..0", "                     %%%%%%%%%%%%%%%%   11               // 0000", "                      22%%%%%%%%%%%%                        0003", "                     222222%%%%%% %%4                    ..55633", "  % %                  22222%%    %%44                    555663", "     %%%                222222   777748                  5556699", "      %%%               2 2222 222777%8:                 5556699", "        %              22 2222222;; <==>?@A           BB  C66669", "                            2222;DD       E            B CCC66FF", "                               GDDDH HIJIIK               CC99FF", "                                 DLLLIIIIII               MNN9FF", "                                  LLLHIIIIIOOP             NNQRR", "      SS                            HHHIIIIOOP              QQRT", "       SS                      U   UUVHIIIWOOPX                 "]})