grid({"keys": ["RS", "", "CH", "US", "MG", "JA", "KN", "KS", "IN", "BT", "BM", "TW", "VM", "BG", "MC", "HK", "LA", "RP", "CQ", "TH", "RM", "CB", "GQ", "FM", "MY", "PS", "ID", "KR", "SN"], "data": {"BG": {"SUBREGION": 34, "NAME": "Bangladesh", "AREA": 13017, "REGION": 142, "LON": 89.941000000000003, "ISO3": "BGD", "ISO2": "BD", "FIPS": "BG", "UN": 50, "LAT": 24.218, "POP2005": 15328112}, "BM": {"SUBREGION": 35, "NAME": "Burma", "AREA": 65755, "REGION": 142, "LON": 96.040999999999997, "ISO3": "MMR", "ISO2": "MM", "FIPS": "BM", "UN": 104, "LAT": 21.718, "POP2005": 47967266}, "BT": {"SUBREGION": 34, "NAME": "Bhutan", "AREA": 4700, "REGION": 142, "LON": 90.429000000000002, "ISO3": "BTN", "ISO2": "BT", "FIPS": "BT", "UN": 64, "LAT": 27.414999999999999, "POP2005": 637013}, "HK": {"SUBREGION": 30, "NAME": "Hong Kong", "AREA": 0, "REGION": 142, "LON": 114.129, "ISO3": "HKG", "ISO2": "HK", "FIPS": "HK", "UN": 344, "LAT": 22.422999999999998, "POP2005": 7057418}, "JA": {"SUBREGION": 30, "NAME": "Japan", "AREA": 36450, "REGION": 142, "LON": 139.06800000000001, "ISO3": "JPN", "ISO2": "JP", "FIPS": "JA", "UN": 392, "LAT": 36.491, "POP2005": 127896740}, "PS": {"SUBREGION": 57, "NAME": "Palau", "AREA": 0, "REGION": 9, "LON": 134.56999999999999, "ISO3": "PLW", "ISO2": "PW", "FIPS": "PS", "UN": 585, "LAT": 7.5010000000000003, "POP2005": 20127}, "RP": {"SUBREGION": 35, "NAME": "Philippines", "AREA": 29817, "REGION": 142, "LON": 122.46599999999999, "ISO3": "PHL", "ISO2": "PH", "FIPS": "RP", "UN": 608, "LAT": 11.118, "POP2005": 84566163}, "LA": {"SUBREGION": 35, "NAME": "Lao People's Democratic Republic", "AREA": 23080, "REGION": 142, "LON": 102.471, "ISO3": "LAO", "ISO2": "LA", "FIPS": "LA", "UN": 418, "LAT": 19.905000000000001, "POP2005": 566391}, "TW": {"SUBREGION": 0, "NAME": "Taiwan", "AREA": 0, "REGION": 0, "LON": 120.946, "ISO3": "TWN", "ISO2": "TW", "FIPS": "TW", "UN": 158, "LAT": 23.754000000000001, "POP2005": 0}, "FM": {"SUBREGION": 57, "NAME": "Micronesia, Federated States of", "AREA": 70, "REGION": 9, "LON": 158.23500000000001, "ISO3": "FSM", "ISO2": "FM", "FIPS": "FM", "UN": 583, "LAT": 6.883, "POP2005": 110058}, "TH": {"SUBREGION": 35, "NAME": "Thailand", "AREA": 51089, "REGION": 142, "LON": 100.84399999999999, "ISO3": "THA", "ISO2": "TH", "FIPS": "TH", "UN": 764, "LAT": 15.699999999999999, "POP2005": 63002911}, "RM": {"SUBREGION": 57, "NAME": "Marshall Islands", "AREA": 0, "REGION": 9, "LON": 168.96299999999999, "ISO3": "MHL", "ISO2": "MH", "FIPS": "RM", "UN": 584, "LAT": 7.5949999999999998, "POP2005": 5672}, "CH": {"SUBREGION": 30, "NAME": "China", "AREA": 932743, "REGION": 142, "LON": 106.514, "ISO3": "CHN", "ISO2": "CN", "FIPS": "CH", "UN": 156, "LAT": 33.420000000000002, "POP2005": 1312978855}, "GQ": {"SUBREGION": 57, "NAME": "Guam", "AREA": 55, "REGION": 9, "LON": 144.70699999999999, "ISO3": "GUM", "ISO2": "GU", "FIPS": "GQ", "UN": 316, "LAT": 13.385, "POP2005": 16857}, "CB": {"SUBREGION": 35, "NAME": "Cambodia", "AREA": 17652, "REGION": 142, "LON": 104.56399999999999, "ISO3": "KHM", "ISO2": "KH", "FIPS": "CB", "UN": 116, "LAT": 12.714, "POP2005": 13955507}, "VM": {"SUBREGION": 35, "NAME": "Viet Nam", "AREA": 32549, "REGION": 142, "LON": 105.31399999999999, "ISO3": "VNM", "ISO2": "VN", "FIPS": "VM", "UN": 704, "LAT": 21.491, "POP2005": 85028643}, "IN": {"SUBREGION": 34, "NAME": "India", "AREA": 297319, "REGION": 142, "LON": 78.5, "ISO3": "IND", "ISO2": "IN", "FIPS": "IN", "UN": 356, "LAT": 21.0, "POP2005": 1134403141}, "CQ": {"SUBREGION": 57, "NAME": "Northern Mariana Islands", "AREA": 0, "REGION": 9, "LON": 145.62299999999999, "ISO3": "MNP", "ISO2": "MP", "FIPS": "CQ", "UN": 580, "LAT": 15.005000000000001, "POP2005": 80258}, "ID": {"SUBREGION": 35, "NAME": "Indonesia", "AREA": 181157, "REGION": 142, "LON": 114.252, "ISO3": "IDN", "ISO2": "ID", "FIPS": "ID", "UN": 360, "LAT": -0.97599999999999998, "POP2005": 226063044}, "MG": {"SUBREGION": 30, "NAME": "Mongolia", "AREA": 156650, "REGION": 142, "LON": 102.876, "ISO3": "MNG", "ISO2": "MN", "FIPS": "MG", "UN": 496, "LAT": 46.055999999999997, "POP2005": 2580704}, "MC": {"SUBREGION": 30, "NAME": "Macau", "AREA": 0, "REGION": 142, "LON": 113.545, "ISO3": "MAC", "ISO2": "MO", "FIPS": "MC", "UN": 446, "LAT": 22.199999999999999, "POP2005": 47309}, "RS": {"SUBREGION": 151, "NAME": "Russia", "AREA": 1638094, "REGION": 150, "LON": 96.688999999999993, "ISO3": "RUS", "ISO2": "RU", "FIPS": "RS", "UN": 643, "LAT": 61.988, "POP2005": 143953092}, "KN": {"SUBREGION": 30, "NAME": "Korea, Democratic People's Republic of", "AREA": 12041, "REGION": 142, "LON": 126.45099999999999, "ISO3": "PRK", "ISO2": "KP", "FIPS": "KN", "UN": 408, "LAT": 39.777999999999999, "POP2005": 23615611}, "US": {"SUBREGION": 21, "NAME": "United States", "AREA": 915896, "REGION": 19, "LON": -98.605999999999995, "ISO3": "USA", "ISO2": "US", "FIPS": "US", "UN": 840, "LAT": 39.622, "POP2005": 299846449}, "KS": {"SUBREGION": 30, "NAME": "Korea, Republic of", "AREA": 9873, "REGION": 142, "LON": 128.10300000000001, "ISO3": "KOR", "ISO2": "KR", "FIPS": "KS", "UN": 410, "LAT": 36.503999999999998, "POP2005": 47869837}, "KR": {"SUBREGION": 57, "NAME": "Kiribati", "AREA": 73, "REGION": 9, "LON": 175.036, "ISO3": "KIR", "ISO2": "KI", "FIPS": "KR", "UN": 296, "LAT": -1.508, "POP2005": 92003}, "SN": {"SUBREGION": 35, "NAME": "Singapore", "AREA": 67, "REGION": 142, "LON": 103.80800000000001, "ISO3": "SGP", "ISO2": "SG", "FIPS": "SN", "UN": 702, "LAT": 1.351, "POP2005": 4327468}, "MY": {"SUBREGION": 35, "NAME": "Malaysia", "AREA": 32855, "REGION": 142, "LON": 102.19499999999999, "ISO3": "MYS", "ISO2": "MY", "FIPS": "MY", "UN": 458, "LAT": 4.2009999999999996, "POP2005": 25652985}}, "grid": ["                                                                ", "                                                                ", "                                                                ", "                                                                ", "                                                                ", "                                                                ", "                                                                ", "                                                             !!!", "                                                !           !!!!", "                                               !!          !!!!!", "                                              !!!!     !  !!!!!!", "                                               !!     !!!!!!!!!!", "                                     !!!!!!!!!!!     !!!!!!!!!!!", "                                    !!!!!!!!!!!      !!!!!!!!!!!", "                                    !!!!!!!!!!       !!!!!!!!!!!", "                                   !!!!!!!!!!!       !!!!!!!!!!!", "                                   !!!!!!!!!!!      !  !!!!!!!!!", "                                    ! !!!!!!!!      !!  !!!!!!!!", "                                      !!!!!!!!    !!!!!!!!!!!!!!", "                      ##              !!!!!!!!    !!!!!!!!$$!!!!", "                      ###             !!!!!!!!!  !!!!!!!!!!$!$$$", "      %%              ####             !!!!!!!   !!!!!!!!!!!!!!$", "      %%             #####             !!!!!!  !!!!!!!!!!!!!!!!!", "%%%%%%%%%%%%     %%  #####             !!!!!!  !!!!!!!!!!!!!!!!!", "%%%%%%%%%%%%%%%%%%%%%#######           !!!!!  !!!!!!!!!!!!!!!!!!", "%%%%%%%%%%%%%%%%%%%%%%#######         !!!!!! !!!!!!!!!!!!!!!!!!!", "%%%%%%%%%%%%%%%%%%%%%%#########    !   !!!   !!!!!!!!!!!!!!!!!!!", "%%%%%%%%%%%%%%%%%%%##########     !!& !!   !!!!!!!!!!!!!!!!!!!!!", "##%%%%%%%%%%%%%%%%###########     !!&&&   !!!!!!!!!!!!!!!!!!!!!!", "###%%%%%%%%%%%%%############'    !!&&&&  !!!!!!!!!!!!!!!!!!!!!!!", "####%%%%%%%%%%%############'    !!!&&&&!!!!!!!!!!!!!!!!!!!!!!!!!", "#########%%%#############''''!!!!!!&&!!!!!!!!!!!!!!!!!!!!!!!!!!!", "########################'''''!!!!!!&&!!!!!!!!!!!!!!!!!!!!!!!!!!!", "#####################!##''''!!!!!!!&&&!!!!!!!!!!!!!!!!!!!!!!!!!!", "#######################!((((!!!!!!&&&!!!!!!!!!!!!!!!!!!!!!!!!!!!", "########################!(((((!!!&&&&!!!!!!!!!!!!!!!!!!!!!!!!!!!", "######################!!!((((!&&&&&&&!!!!!!!!!!!!!!!!!!!!!!!!!!!", "######################!!!(((&&&&&&&&!!!!!!!!!!!!!!!!!!!!!!!!!!!!", "######################!!!((&&&&&&!!&!!!!!!!!!!!!!!!!!!!!!!!!!!!!", "#######################!!!!&&&&!!!!&!!!!!!!!!!!!!!!!!!!!!!!!!!!!", "#######################!!!!!&&!!!!!!!!!!!!!!!!!!!!!!!!!!!!!!!!!!", "####)###################!!!!&&!!!!!&!!!!!!!!!!!!!!!!!!!!!!!!!!!!", "*#))))#################!!!!&&!!!!!!!!!!!!!!!!!!!!!!!!!!!!!!!!!!!", "*)))))#################!!!!&&!!!!!!!&&!!!!!!!!!!!!!!!!!!!!!!!!!!", "))))++###############,!!!!&&!&!!!!!!!&!!!!!!!!!!!!!!!!!!!!!!!!!!", "))))+###############,,,&&&!!!&!!!!!!&!!!!!!!!!!!!!!!!!!!!!!!!!!!", "))))+#####--########,,,&&!!!!!!!!!!!!!!!!!!!!&!!!!!!!!!!!!!!!!!!", ".))+++##-----###/0#!!,,!!!!!!!!!!!!!!!!!!!!!!!!!!!!!!!!!!!!!!!!!", "!++++++1-----####!#!!!2!!!!!!!!!!!!!!!!3!!!!!!!!!!!!!!!!!!!!!!!!", "!++++4444----##!!!!!!!2!!!!!!!!!!!!!!!!3!!!!!!!!!!!!!!!!!!!!!!!!", "!!+++44444--!##!!!!!!22!!!!!!!!!!!!!!!!3!!!!!!!!!!!!!!!!!!!!!!!!", "!!!++444444--!!!!!!!!222!!!!!!!!!!!!!!!3!!!!!!!!!!!!!!!!!!!!!!!!", "!!!++444444---!!!!!!!22!!!!!!!!!!!!!!!!3!!!!!!!!!!!!!!!!!!!!!!!!", "!!+!!4444444--!!!!!!!2222!!!!!!!!!!!!!!3!!!!!!!!!!!!!!!!5!!!!!!!", "!)))!+444466--!!!!!!!22222!!!!!!!!!!!!77!!!!!!!!!!!!!!!!!!!!!!!!", "!))!!+44446---!!!!!!222222!!!!!!!!!!!!!!!!!!!!!!!!!5!5555!!!!!!!", "!)!!!444!-----!!!!!!222222!!!!!!!!!!!!!!!!!!!!!!!!!!!!!!55!!!!!!", "!))!!444!---!!!!!!!22!!222!!!!!!!!8!!!!!!!8!!!!!!!!!!555!5!!!!!!", "!!)!!4444!!!!!!!!!922!22222!!!!:!!!!!!88!!888!!!8!!!!!!55!5!!!!!", "!!);;!4449!!!!!!!!99922!22!!!!!!!!!!!8!!!!8!!!!!8!!!!!!5!!5!!!!!", "!!!;;;!999!!;;!!99;;22!!!;;!!!:!!!!!!!!!!!!!!8!!!!!8!!!!!!!!!!!!", "!!!!;;;;999;;;!99;;;!!!!!;;!!!!!!!!!!!!!!!!!!!!!!!!!!!!!!!<<!!!!", "!!!!;;;;;=9!!;;;;;;;;;;!;;;;!!!!!!!!!!!!!!!!!!!!!!!!!!!!!!<<!!!!", "!!!!!;;;;;;!;;;;;;;;;;;;;!;;;;!!!!!!!!!!!!!!!!!!!!!!!!!!!!!<!!!!"]})