grid({"keys": ["", "DA", "SW", "LH", "RS", "GM", "PL", "UK", "NL", "BE", "FR", "EZ", "LU", "LO", "UP", "AU", "HU", "SZ", "RO", "IT", "SI", "HR", "RB", "BK", "SM", "MN", "MJ", "SP", "AL", "VT", "MK", "GR"], "data": {"BE": {"SUBREGION": 155, "NAME": "Belgium", "AREA": 0, "REGION": 150, "LON": 4.6639999999999997, "ISO3": "BEL", "ISO2": "BE", "FIPS": "BE", "UN": 56, "LAT": 50.643000000000001, "POP2005": 10398049}, "FR": {"SUBREGION": 155, "NAME": "France", "AREA": 55010, "REGION": 150, "LON": 2.5499999999999998, "ISO3": "FRA", "ISO2": "FR", "FIPS": "FR", "UN": 250, "LAT": 46.564999999999998, "POP2005": 60990544}, "SP": {"SUBREGION": 39, "NAME": "Spain", "AREA": 49904, "REGION": 150, "LON": -3.649, "ISO3": "ESP", "ISO2": "ES", "FIPS": "SP", "UN": 724, "LAT": 40.226999999999997, "POP2005": 43397491}, "HR": {"SUBREGION": 39, "NAME": "Croatia", "AREA": 5592, "REGION": 150, "LON": 16.693000000000001, "ISO3": "HRV", "ISO2": "HR", "FIPS": "HR", "UN": 191, "LAT": 45.722999999999999, "POP2005": 455149}, "DA": {"SUBREGION": 154, "NAME": "Denmark", "AREA": 4243, "REGION": 150, "LON": 9.2639999999999993, "ISO3": "DNK", "ISO2": "DK", "FIPS": "DA", "UN": 208, "LAT": 56.058, "POP2005": 5416945}, "NL": {"SUBREGION": 155, "NAME": "Netherlands", "AREA": 3388, "REGION": 150, "LON": 5.3890000000000002, "ISO3": "NLD", "ISO2": "NL", "FIPS": "NL", "UN": 528, "LAT": 52.076999999999998, "POP2005": 1632769}, "RS": {"SUBREGION": 151, "NAME": "Russia", "AREA": 1638094, "REGION": 150, "LON": 96.688999999999993, "ISO3": "RUS", "ISO2": "RU", "FIPS": "RS", "UN": 643, "LAT": 61.988, "POP2005": 143953092}, "LO": {"SUBREGION": 151, "NAME": "Slovakia", "AREA": 4808, "REGION": 150, "LON": 19.491, "ISO3": "SVK", "ISO2": "SK", "FIPS": "LO", "UN": 703, "LAT": 48.707000000000001, "POP2005": 5386995}, "LH": {"SUBREGION": 154, "NAME": "Lithuania", "AREA": 6268, "REGION": 150, "LON": 23.896999999999998, "ISO3": "LTU", "ISO2": "LT", "FIPS": "LH", "UN": 440, "LAT": 55.335999999999999, "POP2005": 3425077}, "LU": {"SUBREGION": 155, "NAME": "Luxembourg", "AREA": 0, "REGION": 150, "LON": 6.0880000000000001, "ISO3": "LUX", "ISO2": "LU", "FIPS": "LU", "UN": 442, "LAT": 49.771000000000001, "POP2005": 456613}, "RB": {"SUBREGION": 39, "NAME": "Serbia", "AREA": 0, "REGION": 150, "LON": 20.806000000000001, "ISO3": "SRB", "ISO2": "RS", "FIPS": "RB", "UN": 688, "LAT": 44.031999999999996, "POP2005": 9863026}, "RO": {"SUBREGION": 151, "NAME": "Romania", "AREA": 22987, "REGION": 150, "LON": 24.969000000000001, "ISO3": "ROU", "ISO2": "RO", "FIPS": "RO", "UN": 642, "LAT": 45.844000000000001, "POP2005": 21627557}, "PL": {"SUBREGION": 151, "NAME": "Poland", "AREA": 30629, "REGION": 150, "LON": 19.401, "ISO3": "POL", "ISO2": "PL", "FIPS": "PL", "UN": 616, "LAT": 52.125, "POP2005": 38195558}, "GR": {"SUBREGION": 39, "NAME": "Greece", "AREA": 12890, "REGION": 150, "LON": 21.765999999999998, "ISO3": "GRC", "ISO2": "GR", "FIPS": "GR", "UN": 300, "LAT": 39.665999999999997, "POP2005": 11099737}, "AL": {"SUBREGION": 39, "NAME": "Albania", "AREA": 2740, "REGION": 150, "LON": 20.068000000000001, "ISO3": "ALB", "ISO2": "AL", "FIPS": "AL", "UN": 8, "LAT": 41.143000000000001, "POP2005": 3153731}, "IT": {"SUBREGION": 39, "NAME": "Italy", "AREA": 29411, "REGION": 150, "LON": 12.800000000000001, "ISO3": "ITA", "ISO2": "IT", "FIPS": "IT", "UN": 380, "LAT": 42.700000000000003, "POP2005": 5864636}, "UK": {"SUBREGION": 154, "NAME": "United Kingdom", "AREA": 24193, "REGION": 150, "LON": -1.6000000000000001, "ISO3": "GBR", "ISO2": "GB", "FIPS": "UK", "UN": 826, "LAT": 53.0, "POP2005": 60244834}, "AU": {"SUBREGION": 155, "NAME": "Austria", "AREA": 8245, "REGION": 150, "LON": 14.912000000000001, "ISO3": "AUT", "ISO2": "AT", "FIPS": "AU", "UN": 40, "LAT": 47.683, "POP2005": 8291979}, "EZ": {"SUBREGION": 151, "NAME": "Czech Republic", "AREA": 7727, "REGION": 150, "LON": 15.337999999999999, "ISO3": "CZE", "ISO2": "CZ", "FIPS": "EZ", "UN": 203, "LAT": 49.743000000000002, "POP2005": 10191762}, "GM": {"SUBREGION": 155, "NAME": "Germany", "AREA": 34895, "REGION": 150, "LON": 9.8510000000000009, "ISO3": "DEU", "ISO2": "DE", "FIPS": "GM", "UN": 276, "LAT": 51.109999999999999, "POP2005": 82652369}, "BK": {"SUBREGION": 39, "NAME": "Bosnia and Herzegovina", "AREA": 5120, "REGION": 150, "LON": 17.786000000000001, "ISO3": "BIH", "ISO2": "BA", "FIPS": "BK", "UN": 70, "LAT": 44.168999999999997, "POP2005": 3915238}, "SZ": {"SUBREGION": 155, "NAME": "Switzerland", "AREA": 4000, "REGION": 150, "LON": 7.9080000000000004, "ISO3": "CHE", "ISO2": "CH", "FIPS": "SZ", "UN": 756, "LAT": 46.860999999999997, "POP2005": 7424389}, "MN": {"SUBREGION": 155, "NAME": "Monaco", "AREA": 0, "REGION": 150, "LON": 7.4119999999999999, "ISO3": "MCO", "ISO2": "MC", "FIPS": "MN", "UN": 492, "LAT": 43.75, "POP2005": 325}, "SW": {"SUBREGION": 154, "NAME": "Sweden", "AREA": 41033, "REGION": 150, "LON": 15.27, "ISO3": "SWE", "ISO2": "SE", "FIPS": "SW", "UN": 752, "LAT": 62.011000000000003, "POP2005": 9038049}, "UP": {"SUBREGION": 151, "NAME": "Ukraine", "AREA": 57935, "REGION": 150, "LON": 31.388000000000002, "ISO3": "UKR", "ISO2": "UA", "FIPS": "UP", "UN": 804, "LAT": 49.015999999999998, "POP2005": 46917544}, "MK": {"SUBREGION": 39, "NAME": "The former Yugoslav Republic of Macedonia", "AREA": 2543, "REGION": 150, "LON": 21.698, "ISO3": "MKD", "ISO2": "MK", "FIPS": "MK", "UN": 807, "LAT": 41.600000000000001, "POP2005": 2033655}, "MJ": {"SUBREGION": 39, "NAME": "Montenegro", "AREA": 0, "REGION": 150, "LON": 19.254000000000001, "ISO3": "MNE", "ISO2": "ME", "FIPS": "MJ", "UN": 499, "LAT": 42.792000000000002, "POP2005": 607969}, "SI": {"SUBREGION": 39, "NAME": "Slovenia", "AREA": 2014, "REGION": 150, "LON": 14.827, "ISO3": "SVN", "ISO2": "SI", "FIPS": "SI", "UN": 705, "LAT": 46.124000000000002, "POP2005": 1999425}, "SM": {"SUBREGION": 39, "NAME": "San Marino", "AREA": 0, "REGION": 150, "LON": 12.460000000000001, "ISO3": "SMR", "ISO2": "SM", "FIPS": "SM", "UN": 674, "LAT": 43.942, "POP2005": 30214}, "VT": {"SUBREGION": 39, "NAME": "Holy See (Vatican City)", "AREA": 0, "REGION": 150, "LON": 12.451000000000001, "ISO3": "VAT", "ISO2": "VA", "FIPS": "VT", "UN": 336, "LAT": 41.904000000000003, "POP2005": 783}, "HU": {"SUBREGION": 151, "NAME": "Hungary", "AREA": 9210, "REGION": 150, "LON": 19.134, "ISO3": "HUN", "ISO2": "HU", "FIPS": "HU", "UN": 348, "LAT": 47.07, "POP2005": 10086387}}, "grid": ["                       !!!!!!!!!!!!!#####                  $$$$$", "                       !!!!!!!!!!!!!#####!!               %%%%$$", "                       &&!!!!!!!!!!!     !!              %%%%%%%", "                       &&&&&!!! !!!!      !       '''   %%%%%%%%", "                       &&&&&& !!!!!  &&         ''''''  %%%%%%%%", "                        &&&&&&&&&!!&&&&       '''''''''%%%%%%%%%", "                        &&&&&&&& &&&&&&&   ''''''''''''''''%%%%%", "                        &&&&&&&&&&&&&&&&&'''''''''''''''''''''''", "(                      &&&&&&&&&&&&&&&&&''''''''''''''''''''''''", "(                 &&&&&&&&&&&&&&&&&&&&&&''''''''''''''''''''''''", "(             ))))))&&&&&&&&&&&&&&&&&&&&''''''''''''''''''''''''", "(            ))))))))&&&&&&&&&&&&&&&&&&&''''''''''''''''''''''''", "(            ))))))))&&&&&&&&&&&&&&&&&&&''''''''''''''''''''''''", "(((((        ))))))))&&&&&&&&&&&&&&&&&&&''''''''''''''''''''''''", "(((((        ))))))))&&&&&&&&&&&&&&&&&&&''''''''''''''''''''''''", "(((((       )))))))))&&&&&&&&&&&&&&&&&&&&'''''''''''''''''''''''", "(((((      )))))))))&&&&&&&&&&&&&&&&&&&&&'''''''''''''''''''''''", "(((((      )))))))))&&&&&&&&&&&&&&&&&&&&&'''''''''''''''''''''''", "((((      )))))))))&&&&&&&&&&&&&&&&&&&&&&'''''''''''''''''''''''", "(((      )))))))))&&&&&&&&&&&&&&&&&&&&&&&'''''''''''''''''''''''", "((((    *)))))))))&&&&&&&&&&&&&&&&&&&&&&&&''''''''''''''''''''''", "((((  +*********))&&&&&&&&&&&&&&&&&&&&&&&&''''''''''''''''''''''", "((( +++*********))&&&&&&&&&&&&&&&&&&&&&&&&''''''''''''''''''''''", "((  +++++*******))&&&&&&&&&&&&&&&&&&&&&,,,,,''''''''''''''''''''", "    ++++++*********&&&&&&&&&&&&&&&&&&,,,,,,,,,''''''''''''''''''", "    +++++++******-*&&&&&&&&&&&&&&&&,,,,,,,,,,,''',''''''''''''''", "  +++++++++*****---&&&&&&&&&&&&&&&&&,,,,,,,,,,,,,,''''''''''''''", " ++++++++++++***---&&&&&&&&&&&&&&&&&,,,,,,,,,,,,,,,,''''''''''''", "+++++++++++++++*---&&&&&&&&&&&&&&&&&&,,,,,,,,,,,,,,,,'''''''''''", "++++++++++++++++++&&&&&&&&&&&&&&&&&&&&,,,,,,,,,,,,,.....''''''''", "++++++++++++++++++++&&&&&&&&&&&&&&&&&&&,,,,,,,,,,,.......'...../", "++++++++++++++++++++++&&&&&&&&&&&&&&&&&&,,,,,,,,.............../", "++++++++++++++++++++++&&&&&&&&&&&&&&&&&&,,,000,,.............../", "+++++++++++++++++++++&&&&&&&&&&&&&&&&&&000000000...........1.../", "+++++++++++++++++++++&&&&&&&&&&&&&&&&00000000000.........111111/", "+++++++++++++++++++++&&&2&&&&&&&&&&&&00000000000........11111111", "+++++++++++++++++++++222222&&&&&&&&&&000000000111111..1111111133", "+++++++++++++++++++222222222&&&&&&&0&&00000000011111111111111133", "++++++++++++++++++2222222222&&0000000000000000011111111111111333", "++++++++++++++++++2222222222224444400000000005111111111111111333", "+++++++++++++++++22222222222224444444400000555511111111111113333", "+++++++++++++++++22222222222224444444455555555551111111111113333", "++++++++++++++++222222222222244444444455555555611111111113333333", "+++++++++++++++++++222242244444444444455555556661111177777733333", "+++++++++++++++++++444444244444444444455555556666611677777773333", "+++++++++++++++++++444444444444444444 55555566666666677777777333", "+++++++++++++++++++44444444444444444  66666666666666677777777733", "++++++++++++++++++444444444444444444   6666666888886667777777733", "+++++++++++++++++++44444444444444444   6666666888888867777777737", "+++++++++++++++++++44444444444444444    666666888888887777777777", "+++++++++++++++++++44444444444444444      6666688888887777777777", "+++++++++++++++++++++444   44444444944    6666688888887777777777", "+++++++++++++++++++++:      44444444444    666668888888777777777", "+++++++++++++++++++++        4444444444      66668888;7777777777", "+++++++++++    +++++         44444444444      6666888;;777777777", "++++++++++       +        +4  4444444444     66 6668;;;;77777777", "<<<<<++++                +++4444444444444      66666;;;;;7777777", "<<<<<<<<<<              ++++44444444444444         6;;;;;7777777", "<<<<<<<<<<              ++++ 4444444444444           ;;;=7777777", "<<<<<<<<<<              ++++     44>4444444444        ;;==777???", "<<<<<<<<<               +++       444444444444         ===??????", "<<<<<<<                 +++         44444444444        ===??????", "<<<<<                  4 444         444444444444      ===??????", "<<<                    44444        4  444444444444    ===????@@"]})