grid({"keys": ["", "VI", "RQ", "VQ", "AV", "TB", "GP", "AC", "NT", "SC", "MH", "DO", "MB", "ST", "VC", "BB", "GJ", "VE", "TD"], "data": {"DO": {"SUBREGION": 29, "NAME": "Dominica", "AREA": 75, "REGION": 19, "LON": -61.356000000000002, "ISO3": "DMA", "ISO2": "DM", "FIPS": "DO", "UN": 212, "LAT": 15.475, "POP2005": 67827}, "AC": {"SUBREGION": 29, "NAME": "Antigua and Barbuda", "AREA": 44, "REGION": 19, "LON": -61.783000000000001, "ISO3": "ATG", "ISO2": "AG", "FIPS": "AC", "UN": 28, "LAT": 17.077999999999999, "POP2005": 83039}, "VC": {"SUBREGION": 29, "NAME": "Saint Vincent and the Grenadines", "AREA": 39, "REGION": 19, "LON": -61.194000000000003, "ISO3": "VCT", "ISO2": "VC", "FIPS": "VC", "UN": 670, "LAT": 13.247999999999999, "POP2005": 119137}, "RQ": {"SUBREGION": 29, "NAME": "Puerto Rico", "AREA": 887, "REGION": 19, "LON": -66.465999999999994, "ISO3": "PRI", "ISO2": "PR", "FIPS": "RQ", "UN": 630, "LAT": 18.221, "POP2005": 3946779}, "BB": {"SUBREGION": 29, "NAME": "Barbados", "AREA": 43, "REGION": 19, "LON": -59.558999999999997, "ISO3": "BRB", "ISO2": "BB", "FIPS": "BB", "UN": 52, "LAT": 13.153, "POP2005": 291933}, "GP": {"SUBREGION": 29, "NAME": "Guadeloupe", "AREA": 169, "REGION": 19, "LON": -61.441000000000003, "ISO3": "GLP", "ISO2": "GP", "FIPS": "GP", "UN": 312, "LAT": 16.286000000000001, "POP2005": 438403}, "TB": {"SUBREGION": 29, "NAME": "Saint Barthelemy", "AREA": 0, "REGION": 19, "LON": -63.042999999999999, "ISO3": "BLM", "ISO2": "BL", "FIPS": "TB", "UN": 652, "LAT": 18.039999999999999, "POP2005": 0}, "MB": {"SUBREGION": 29, "NAME": "Martinique", "AREA": 106, "REGION": 19, "LON": -61.021000000000001, "ISO3": "MTQ", "ISO2": "MQ", "FIPS": "MB", "UN": 474, "LAT": 14.653, "POP2005": 395896}, "MH": {"SUBREGION": 29, "NAME": "Montserrat", "AREA": 10, "REGION": 19, "LON": -62.186999999999998, "ISO3": "MSR", "ISO2": "MS", "FIPS": "MH", "UN": 500, "LAT": 16.736000000000001, "POP2005": 5628}, "ST": {"SUBREGION": 29, "NAME": "Saint Lucia", "AREA": 61, "REGION": 19, "LON": -60.969000000000001, "ISO3": "LCA", "ISO2": "LC", "FIPS": "ST", "UN": 662, "LAT": 13.898, "POP2005": 16124}, "VQ": {"SUBREGION": 29, "NAME": "United States Virgin Islands", "AREA": 35, "REGION": 19, "LON": -64.784999999999997, "ISO3": "VIR", "ISO2": "VI", "FIPS": "VQ", "UN": 850, "LAT": 17.741, "POP2005": 111408}, "AV": {"SUBREGION": 29, "NAME": "Anguilla", "AREA": 0, "REGION": 19, "LON": -63.031999999999996, "ISO3": "AIA", "ISO2": "AI", "FIPS": "AV", "UN": 660, "LAT": 18.236999999999998, "POP2005": 12256}, "SC": {"SUBREGION": 29, "NAME": "Saint Kitts and Nevis", "AREA": 36, "REGION": 19, "LON": -62.768999999999998, "ISO3": "KNA", "ISO2": "KN", "FIPS": "SC", "UN": 659, "LAT": 17.34, "POP2005": 49138}, "VI": {"SUBREGION": 29, "NAME": "British Virgin Islands", "AREA": 15, "REGION": 19, "LON": -64.390000000000001, "ISO3": "VGB", "ISO2": "VG", "FIPS": "VI", "UN": 92, "LAT": 18.483000000000001, "POP2005": 22016}, "TD": {"SUBREGION": 29, "NAME": "Trinidad and Tobago", "AREA": 513, "REGION": 19, "LON": -61.253, "ISO3": "TTO", "ISO2": "TT", "FIPS": "TD", "UN": 780, "LAT": 10.468, "POP2005": 1323722}, "NT": {"SUBREGION": 29, "NAME": "Netherlands Antilles", "AREA": 80, "REGION": 19, "LON": -68.870000000000005, "ISO3": "ANT", "ISO2": "AN", "FIPS": "NT", "UN": 530, "LAT": 12.122999999999999, "POP2005": 186392}, "GJ": {"SUBREGION": 29, "NAME": "Grenada", "AREA": 34, "REGION": 19, "LON": -61.677999999999997, "ISO3": "GRD", "ISO2": "GD", "FIPS": "GJ", "UN": 308, "LAT": 12.118, "POP2005": 105237}, "VE": {"SUBREGION": 5, "NAME": "Venezuela", "AREA": 88205, "REGION": 19, "LON": -66.165999999999997, "ISO3": "VEN", "ISO2": "VE", "FIPS": "VE", "UN": 862, "LAT": 7.125, "POP2005": 26725573}}, "grid": ["                                                                ", "                                                                ", "                                                                ", "                                                                ", "                                                                ", "                                                                ", "                                                                ", "                                                                ", "                                                                ", "                                                                ", "                                                                ", "                                                                ", "                                                                ", "                                                                ", "                                                                ", "                                                                ", "                                                                ", "                                                                ", "                 !!                                             ", "                  !                                             ", " ######         !!!                                             ", " ########## # $$$        %                                      ", " ############           &&                                      ", " #####                   &'                                     ", "               $$                                               ", "              $$                (                               ", "                         )                                      ", "                          **                                    ", "                           **  (((                              ", "                                ((                              ", "                             ++                                 ", "                              +                                 ", "                                                                ", "                                ''''''                          ", "                                '''                             ", "                                '' '                            ", "                                                                ", "                                  ,,                            ", "                                  ,,                            ", "                                  ,,                            ", "                                                                ", "                                   --                           ", "                                    --                          ", "                                    --                          ", "                                     -                          ", "                                                                ", "                                    ..                          ", "                                    ..                          ", "                                    ..                          ", "                                                                ", "                                   /        0                   ", "                                   /        00                  ", "                                   /         0                  ", "                                                                ", "                                   /                            ", "                                  /                             ", "                                 11                             ", "                                 1                              ", "                                11                              ", "    22 2        2                                               ", "    2                                                           ", "                                                                ", "                                      33                        ", "                   22                333                        "]})