grid({"keys": ["", "MX", "CU", "TK", "BF", "US", "HA", "CJ", "DR", "JM", "BH", "RQ", "GT", "HO", "NU", "ES", "CO", "AA", "VE", "NT", "CS", "PM", "EC", "BR"], "data": {"BF": {"SUBREGION": 29, "NAME": "Bahamas", "AREA": 1001, "REGION": 19, "LON": -78.013999999999996, "ISO3": "BHS", "ISO2": "BS", "FIPS": "BF", "UN": 44, "LAT": 24.628, "POP2005": 323295}, "BH": {"SUBREGION": 13, "NAME": "Belize", "AREA": 2281, "REGION": 19, "LON": -88.602000000000004, "ISO3": "BLZ", "ISO2": "BZ", "FIPS": "BH", "UN": 84, "LAT": 17.219000000000001, "POP2005": 275546}, "JM": {"SUBREGION": 29, "NAME": "Jamaica", "AREA": 1083, "REGION": 19, "LON": -77.319999999999993, "ISO3": "JAM", "ISO2": "JM", "FIPS": "JM", "UN": 388, "LAT": 18.151, "POP2005": 2682469}, "HO": {"SUBREGION": 13, "NAME": "Honduras", "AREA": 11189, "REGION": 19, "LON": -86.863, "ISO3": "HND", "ISO2": "HN", "FIPS": "HO", "UN": 340, "LAT": 14.819000000000001, "POP2005": 683411}, "BR": {"SUBREGION": 5, "NAME": "Brazil", "AREA": 845942, "REGION": 19, "LON": -53.088999999999999, "ISO3": "BRA", "ISO2": "BR", "FIPS": "BR", "UN": 76, "LAT": -10.772, "POP2005": 186830759}, "HA": {"SUBREGION": 29, "NAME": "Haiti", "AREA": 2756, "REGION": 19, "LON": -72.278000000000006, "ISO3": "HTI", "ISO2": "HT", "FIPS": "HA", "UN": 332, "LAT": 19.141999999999999, "POP2005": 9296291}, "DR": {"SUBREGION": 29, "NAME": "Dominican Republic", "AREA": 4838, "REGION": 19, "LON": -70.728999999999999, "ISO3": "DOM", "ISO2": "DO", "FIPS": "DR", "UN": 214, "LAT": 19.015000000000001, "POP2005": 9469601}, "RQ": {"SUBREGION": 29, "NAME": "Puerto Rico", "AREA": 887, "REGION": 19, "LON": -66.465999999999994, "ISO3": "PRI", "ISO2": "PR", "FIPS": "RQ", "UN": 630, "LAT": 18.221, "POP2005": 3946779}, "CU": {"SUBREGION": 29, "NAME": "Cuba", "AREA": 10982, "REGION": 19, "LON": -77.781000000000006, "ISO3": "CUB", "ISO2": "CU", "FIPS": "CU", "UN": 192, "LAT": 21.297000000000001, "POP2005": 11259905}, "TK": {"SUBREGION": 29, "NAME": "Turks and Caicos Islands", "AREA": 0, "REGION": 19, "LON": -71.950000000000003, "ISO3": "TCA", "ISO2": "TC", "FIPS": "TK", "UN": 796, "LAT": 21.902000000000001, "POP2005": 24459}, "NT": {"SUBREGION": 29, "NAME": "Netherlands Antilles", "AREA": 80, "REGION": 19, "LON": -68.870000000000005, "ISO3": "ANT", "ISO2": "AN", "FIPS": "NT", "UN": 530, "LAT": 12.122999999999999, "POP2005": 186392}, "NU": {"SUBREGION": 13, "NAME": "Nicaragua", "AREA": 12140, "REGION": 19, "LON": -85.034000000000006, "ISO3": "NIC", "ISO2": "NI", "FIPS": "NU", "UN": 558, "LAT": 12.84, "POP2005": 5462539}, "PM": {"SUBREGION": 13, "NAME": "Panama", "AREA": 7443, "REGION": 19, "LON": -80.920000000000002, "ISO3": "PAN", "ISO2": "PA", "FIPS": "PM", "UN": 591, "LAT": 8.3840000000000003, "POP2005": 3231502}, "AA": {"SUBREGION": 29, "NAME": "Aruba", "AREA": 0, "REGION": 19, "LON": -69.977000000000004, "ISO3": "ABW", "ISO2": "AW", "FIPS": "AA", "UN": 533, "LAT": 12.516999999999999, "POP2005": 102897}, "CJ": {"SUBREGION": 29, "NAME": "Cayman Islands", "AREA": 26, "REGION": 19, "LON": -81.197999999999993, "ISO3": "CYM", "ISO2": "KY", "FIPS": "CJ", "UN": 136, "LAT": 19.314, "POP2005": 45591}, "GT": {"SUBREGION": 13, "NAME": "Guatemala", "AREA": 10843, "REGION": 19, "LON": -90.397999999999996, "ISO3": "GTM", "ISO2": "GT", "FIPS": "GT", "UN": 320, "LAT": 15.256, "POP2005": 12709564}, "CO": {"SUBREGION": 5, "NAME": "Colombia", "AREA": 103870, "REGION": 19, "LON": -73.075999999999993, "ISO3": "COL", "ISO2": "CO", "FIPS": "CO", "UN": 170, "LAT": 3.8999999999999999, "POP2005": 4494579}, "VE": {"SUBREGION": 5, "NAME": "Venezuela", "AREA": 88205, "REGION": 19, "LON": -66.165999999999997, "ISO3": "VEN", "ISO2": "VE", "FIPS": "VE", "UN": 862, "LAT": 7.125, "POP2005": 26725573}, "EC": {"SUBREGION": 5, "NAME": "Ecuador", "AREA": 27684, "REGION": 19, "LON": -78.497, "ISO3": "ECU", "ISO2": "EC", "FIPS": "EC", "UN": 218, "LAT": -1.385, "POP2005": 13060993}, "CS": {"SUBREGION": 13, "NAME": "Costa Rica", "AREA": 5106, "REGION": 19, "LON": -83.945999999999998, "ISO3": "CRI", "ISO2": "CR", "FIPS": "CS", "UN": 188, "LAT": 9.9710000000000001, "POP2005": 4327228}, "ES": {"SUBREGION": 13, "NAME": "El Salvador", "AREA": 2072, "REGION": 19, "LON": -88.866, "ISO3": "SLV", "ISO2": "SV", "FIPS": "ES", "UN": 222, "LAT": 13.736000000000001, "POP2005": 6668356}, "US": {"SUBREGION": 21, "NAME": "United States", "AREA": 915896, "REGION": 19, "LON": -98.605999999999995, "ISO3": "USA", "ISO2": "US", "FIPS": "US", "UN": 840, "LAT": 39.622, "POP2005": 299846449}, "MX": {"SUBREGION": 13, "NAME": "Mexico", "AREA": 190869, "REGION": 19, "LON": -102.535, "ISO3": "MEX", "ISO2": "MX", "FIPS": "MX", "UN": 484, "LAT": 23.951000000000001, "POP2005": 104266392}}, "grid": ["    !!!!!     ##   ###  #   #########            $$$$           ", "!!!!!!!!!!         ###          #######        %%    $          ", "!!!!!!!!!!                    ###########     %%%               ", "!!!!!!!!!!                     ###########                      ", "!!!!!!!!!!                      ##  ##########                  ", "!!!!!!!!                           #######&##   ''              ", "!!!!!!!!                    ((    ########&    '''''))))))      ", "!!!!!!!!                ((                      ''''))))))))    ", "!!!!!!!!                                       ''''')))))))))   ", "!!!!!!!!                                    ''''''''')))))))))  ", "!!!!!!!!                         *****      ''''''''))))))))))  ", "!!!!++!                          *******    '''''''')) )    ) ,,", "!!!+++                            ******            ))          ", "---++++          .                                  )           ", "---+++                                                          ", "---++                                                           ", "---++    ...                                                    ", "----    .......                                                 ", "----..............                                              ", "--................                                              ", "--................//                                            ", "-............///////                                            ", "-............////////                                           ", "--.......///////////                                            ", "-00000...//////////                                             ", " 00000..///////////     1                                       ", "     0/////////////                                             ", "      /////////////    1                                22      ", "       //////////////                              111  32 4444 ", "        //////////                               11133  33  44  ", "          ////////                              11333   3333    ", "           ///////                         111111333  33333333  ", "           5///////                      111111113333333333333  ", "           55555//55                     11111113333333333333333", "           5555555555                    11111113333 33333333333", "            555555555                    11111133333 33333333333", "             5555555666     66666       111111133333 33333333333", "                55556666  666666666    1111111133333333333333333", "                 5556666666666666666 111111111111333333333333333", "                 55566666666666666666111111111111333333333333333", "                   566666666  6666666111111111111333333333333333", "                       666666    6666111111111111333333333333333", "                       666666    6661111111111111333333333333333", "                       6 666      611111111111111133333333333333", "                                   11111111111111111111133333333", "                                   11111111111111111111113333333", "                                   11111111111111111111111333333", "                                   11111111111111111111111111113", "                                   11111111111111111111111111113", "                                   11111111111111111111111111113", "                                   11111111111111111111111111133", "                                   11111111111111111111111111113", "                                   11111111111111111111111111113", "                                    1111111111111111111111111111", "                                   11111111111111111111111111113", "                                   11111111111111111111111111113", "                                11111111111111111111111111111113", "                                11111111111111111111111111111111", "                               111111111111111111111111111111111", "                               771111111111111111111111111888888", "                             77777111111111111111111111111118888", "                            777777711111111111111111111111118888", "                            777777777777111111111111111111188888", "                           7777777777777771111111111111118888888"]})